[
  {
    "id": 1,
    "name": "Hashem Restaurant",
    "location": { "lat": 31.9539, "lng": 35.9304 },
    "rate": 4.7,
    "category": "Middle Eastern",
    "address": "Al Balad, Amman",
    "image": "https://images.unsplash.com/photo-1517248135467-4c7edcad34c4?w=400&h=300&fit=crop"
  },
  {
    "id": 2,
    "name": "Reem Al Bawadi",
    "location": { "lat": 31.956, "lng": 35.934 },
    "rate": 4.5,
    "category": "Jordanian",
    "address": "Rainbow Street, Amman"
  },
  {
    "id": 3,
    "name": "Sufra Restaurant",
    "location": { "lat": 31.953, "lng": 35.9345 },
    "rate": 4.6,
    "category": "Middle Eastern",
    "address": "Jabal Amman, Amman",
    "image": "https://images.unsplash.com/photo-1565299624946-b28f40a0ca4b?w=400&h=300&fit=crop"
  },
  {
    "id": 4,
    "name": "Shams El Balad",
    "location": { "lat": 31.9505, "lng": 35.933 },
    "rate": 4.4,
    "category": "Café",
    "address": "Abdoun, Amman",
    "image": "https://images.unsplash.com/photo-1501339847302-ac426a4a7cbb?w=400&h=300&fit=crop"
  },
  {
    "id": 5,
    "name": "Wild Jordan Cafe",
    "location": { "lat": 31.9518, "lng": 35.9335 },
    "rate": 4.8,
    "category": "Café",
    "address": "Jabal Amman, Amman",
    "image": "https://images.unsplash.com/photo-1554118811-1e0d58224f24?w=400&h=300&fit=crop"
  },
  {
    "id": 6,
    "name": "Al Quds Restaurant",
    "location": { "lat": 31.9545, "lng": 35.929 },
    "rate": 4.3,
    "category": "Middle Eastern",
    "address": "Downtown, Amman",
    "image": "https://images.unsplash.com/photo-1552566626-52f8b828add9?w=400&h=300&fit=crop"
  },
  {
    "id": 7,
    "name": "Books@Cafe",
    "location": { "lat": 31.955, "lng": 35.9315 },
    "rate": 4.6,
    "category": "Café",
    "address": "Jabal Amman, Amman",
    "image": "https://images.unsplash.com/photo-1445116572660-236099ec97a0?w=400&h=300&fit=crop"
  },
  {
    "id": 8,
    "name": "Kan Zaman",
    "location": { "lat": 31.958, "lng": 35.927 },
    "rate": 4.5,
    "category": "Jordanian",
    "address": "Old Town, Amman",
    "image": "https://images.unsplash.com/photo-1559339352-11d035aa65de?w=400&h=300&fit=crop"
  },
  {
    "id": 9,
    "name": "Cantaloupe Gastro Pub",
    "location": { "lat": 31.95, "lng": 35.938 },
    "rate": 4.7,
    "category": "Pub",
    "address": "Rainbow Street, Amman",
    "image": "https://images.unsplash.com/photo-1514933651103-005eec06c04b?w=400&h=300&fit=crop"
  },
  {
    "id": 10,
    "name": "Fakhreldin Restaurant",
    "location": { "lat": 31.9565, "lng": 35.935 },
    "rate": 4.8,
    "category": "Lebanese",
    "address": "Abdoun, Amman",
    "image": "https://images.unsplash.com/photo-1565299624946-b28f40a0ca4b?w=400&h=300&fit=crop"
  }
]
